{
  "1": {
    "sportFacilityId": "1",
    "name": "Synergy",
    "type": "GYM",
    "isWorking": false,
    "currentLocation": {
      "streetAndNumber": "Veselina Maslese 74",
      "city": "Novi Sad",
      "postalCode": "2100",
      "latitude": "45.26031035752238",
      "longitude": "19.809554954172846"
    },
    "averageGrade": 9.0,
    "deleted": false
  },
  "2": {
    "sportFacilityId": "2",
    "name": "Milan",
    "type": "POOL",
    "facilityContent": [],
    "isWorking": false,
    "currentLocation": {
      "streetAndNumber": "Hickoka 3",
      "city": "Novi Sad",
      "postalCode": "21000",
      "latitude": "45.248439636131316",
      "longitude": "19.815743302642588"
    },
    "averageGrade": 0.0,
    "deleted": false
  },
  "3": {
    "sportFacilityId": "3",
    "name": "matica",
    "type": "DANCINGSTUDIO",
    "facilityContent": [],
    "isWorking": false,
    "currentLocation": {
      "streetAndNumber": "Mike Antica 12",
      "city": "Novi Sad",
      "postalCode": "21000",
      "latitude": "45.25336731236138",
      "longitude": "19.84558805760194"
    },
    "averageGrade": 0.0,
    "deleted": false
  },
  "4": {
    "sportFacilityId": "4",
    "name": "Flex",
    "type": "GYM",
    "isWorking": true,
    "currentLocation": {
      "streetAndNumber": "Bulevar Cara Lazara 11",
      "city": "Novi Sad",
      "postalCode": "2100",
      "latitude": "45.24857800161932",
      "longitude": "19.844296524797166"
    },
    "averageGrade": 4.0,
    "deleted": false
  },
  "5": {
    "sportFacilityId": "5",
    "name": "Gladiator",
    "type": "GYM",
    "isWorking": false,
    "currentLocation": {
      "streetAndNumber": "Fruskogorska 19",
      "city": "Novi Sad",
      "postalCode": "2100",
      "latitude": "45.241892911574055",
      "longitude": "19.82849249596142"
    },
    "averageGrade": 5.0,
    "deleted": false
  },
  "6": {
    "sportFacilityId": "6",
    "name": "Atlantida",
    "type": "POOL",
    "isWorking": true,
    "currentLocation": {
      "streetAndNumber": "Klisa 8",
      "city": "Novi Sad",
      "postalCode": "2100",
      "latitude": "45.29340339934422",
      "longitude": "19.82332165941428"
    },
    "averageGrade": 4.0,
    "deleted": false
  },
  "7": {
    "sportFacilityId": "7",
    "name": "Talicna",
    "type": "SHOOTINGRANGE",
    "isWorking": true,
    "currentLocation": {
      "streetAndNumber": "Nehrunova 50",
      "city": "Beograd",
      "postalCode": " 11070",
      "latitude": "44.800852647085684",
      "longitude": "20.383988526632155"
    },
    "averageGrade": 4.0,
    "deleted": false
  },
  "8": {
    "sportFacilityId": "8",
    "name": "Atletic",
    "type": "GYM",
    "facilityContent": [],
    "isWorking": false,
    "currentLocation": {
      "streetAndNumber": "Voje ilica 21",
      "city": "Beograd",
      "postalCode": "11050",
      "latitude": "44.78759833309235",
      "longitude": "20.503788982680035"
    },
    "averageGrade": 0.0,
    "deleted": false
  }
}